[
  {
    "name": "Alberta",
    "flag": "http://media.zuza.com/2/5/25a5f860-9706-49a8-a66d-94af64efc53e/Alberta.jpg",
    "link": "https://en.wikipedia.org/wiki/Alberta",
    "short": "AB",
    "rank": 4,
    "population": 4067175,
    "capital": "Edmonton",
    "latitude": 53.9332706,
    "longitude": -116.5765035
  },
  {
    "name": "British Columbia",
    "flag": "http://media.zuza.com/b/7/b7810ae6-415f-4b66-acd3-59d6145b4d2a/British_Columbia.jpg",
    "link": "https://en.wikipedia.org/wiki/British_Columbia",
    "short": "BC",
    "rank": 3,
    "population": 4648055,
    "capital": "Victoria",
    "latitude": 53.7266683,
    "longitude": -127.6476206
  },
  {
    "name": "Manitoba",
    "flag": "http://media.zuza.com/f/1/f17e4a00-9f50-4882-963b-77f4fac94130/Manitoba.jpg",
    "link": "https://en.wikipedia.org/wiki/Manitoba",
    "short": "MB",
    "rank": 5,
    "population": 1278365,
    "capital": "Winnipeg",
    "latitude": 53.7608608,
    "longitude": -98.8138763
  },
  {
    "name": "New Brunswick",
    "flag": "http://media.zuza.com/4/0/40dc12e4-2c31-483e-8d2d-7321e15987f2/New_Brunswick.jpg",
    "link": "https://en.wikipedia.org/wiki/New_Brunswick",
    "short": "NB",
    "rank": 8,
    "population": 747101,
    "capital": "Fredericton",
    "latitude": 46.5653163,
    "longitude": -66.4619164
  },
  {
    "name": "Newfoundland And Labrador",
    "flag": "http://media.zuza.com/9/e/9ef075a1-25b5-482f-b9ab-f896e20e9f56/Newfoundland_and_Labrador.jpg",
    "link": "https://en.wikipedia.org/wiki/Newfoundland_and_Labrador",
    "short": "NL",
    "rank": 9,
    "population": 519716,
    "capital": "St John's",
    "latitude": 48.6064556,
    "longitude": -56.3330408
  },
  {
    "name": "Nova Scotia",
    "flag": "http://media.zuza.com/0/e/0eb2f50f-e24d-41a2-8a9d-771ab6bdb13f/Nova_Scotia.jpg",
    "link": "https://en.wikipedia.org/wiki/Nove_Scotia",
    "short": "NS",
    "rank": 7,
    "population": 923598,
    "capital": "Halifax",
    "latitude": 44.6819866,
    "longitude": -63.744311
  },
  {
    "name": "Nunavut",
    "flag": "http://media.zuza.com/7/f/7ff88b5b-012f-4310-a747-2da8627db5f7/Nunavut.jpg",
    "link": "https://en.wikipedia.org/wiki/Nunavut",
    "short": "NU",
    "rank": 12,
    "population": 35944,
    "capital": "Iqaluit",
    "latitude": 70.2997711,
    "longitude": -83.1075769
  },
  {
    "name": "Northwest Territories",
    "flag": "http://media.zuza.com/c/8/c8d4a098-3db9-40bf-9393-dd41636efa10/Northwest_Territories.jpg",
    "link": "https://en.wikipedia.org/wiki/Northwest_Territories",
    "short": "NT",
    "rank": 11,
    "population": 41786,
    "capital": "Yellowknife",
    "latitude": 64.8255441,
    "longitude": -124.8457334
  },
  {
    "name": "Ontario",
    "flag": "http://media.zuza.com/4/2/42a19fd2-70cf-417e-9e91-6d82d66dfbb7/Ontario.jpg",
    "link": "https://en.wikipedia.org/wiki/Ontario",
    "short": "ON",
    "rank": 1,
    "population": 13448494,
    "capital": "Toronto",
    "latitude": 51.253775,
    "longitude": -85.3232139
  },
  {
    "name": "Prince Edward Island",
    "flag": "http://media.zuza.com/9/c/9c3f4613-9205-4b9c-b75f-62174ef7e63a/PEI.jpg",
    "link": "https://en.wikipedia.org/wiki/Prince_Edward_island",
    "short": "PE",
    "rank": 10,
    "population": 142907,
    "capital": "Charlottetown",
    "latitude": 46.510712,
    "longitude": -63.4168136
  },
  {
    "name": "Quebec",
    "flag": "http://media.zuza.com/1/c/1c990a18-d0ac-4e2e-9927-4a79eeddfd67/Quebec.jpg",
    "link": "https://en.wikipedia.org/wiki/Quebec",
    "short": "QC",
    "rank": 2,
    "population": 8164361,
    "capital": "Quebec City",
    "latitude": 52.9399159,
    "longitude": -73.5491361
  },
  {
    "name": "Saskatchewan",
    "flag": "http://media.zuza.com/d/7/d7ae13dd-50d8-4ae6-842b-b832dc57559d/Saskatchewan.jpg",
    "link": "https://en.wikipedia.org/wiki/Saskatchewan",
    "short": "SK",
    "rank": 6,
    "population": 1098352,
    "capital": "Regina",
    "latitude": 52.9399159,
    "longitude": -106.4508639
  },
  {
    "name": "Yukon",
    "flag": "http://media.zuza.com/3/2/322beea7-3c46-42ff-bdee-bff65073744f/Yukon.jpg",
    "link": "https://en.wikipedia.org/wiki/Yukon",
    "short": "YT",
    "rank": 13,
    "population": 35874,
    "capital": "Whitehorse",
    "latitude": 64.2823274,
    "longitude": -135
  }
]
